City_ID,City,Country,Lat,Lng,Max Temp,Humidity,Cloudiness,Wind Speed,Current Description,Date
0,Avarua,CK,-21.2078,-159.775,86.05,74,25,9.22,scattered clouds,2022-03-31 02:14:06
1,Upernavik,GL,72.7868,-56.1549,13.66,84,36,6.44,scattered clouds,2022-03-31 02:14:06
2,Atuona,PF,-9.8,-139.0333,79.07,72,29,12.8,scattered clouds,2022-03-31 02:14:07
3,Vyshchetarasivka,UA,47.5685,34.881,44.98,83,100,11.41,overcast clouds,2022-03-31 02:14:07
4,Tuktoyaktuk,CA,69.4541,-133.0374,-15.48,94,100,8.34,overcast clouds,2022-03-31 02:14:08
5,Port Alfred,ZA,-33.5906,26.891,65.17,76,100,3.8,overcast clouds,2022-03-31 02:14:08
6,Mnogovershinnyy,RU,53.9353,139.9242,21.27,62,5,8.59,clear sky,2022-03-31 02:14:09
7,Longyearbyen,SJ,78.2186,15.6401,6.64,61,0,2.3,clear sky,2022-03-31 02:13:19
8,Albany,US,42.6001,-73.9662,39.61,38,100,4.0,overcast clouds,2022-03-31 02:12:31
9,Port Elizabeth,ZA,-33.918,25.5701,64.31,74,100,1.99,overcast clouds,2022-03-31 02:14:10
10,Lewistown,US,40.5992,-77.5714,50.07,57,0,6.91,clear sky,2022-03-31 02:14:10
11,Airai,TL,-8.9266,125.4092,72.28,60,96,1.74,overcast clouds,2022-03-31 02:14:11
12,Ushuaia,AR,-54.8,-68.3,46.06,81,75,8.05,broken clouds,2022-03-31 02:14:11
13,Mataura,NZ,-46.1927,168.8643,70.95,45,99,4.79,overcast clouds,2022-03-31 02:14:11
14,Tongliao,CN,43.6125,122.2653,39.74,23,100,2.77,overcast clouds,2022-03-31 02:14:12
15,Cape Town,ZA,-33.9258,18.4232,59.11,90,86,1.01,overcast clouds,2022-03-31 02:13:31
16,Rikitea,PF,-23.1203,-134.9692,78.37,77,97,16.82,light rain,2022-03-31 02:09:29
17,Acarau,BR,-2.8856,-40.12,78.44,83,100,9.13,overcast clouds,2022-03-31 02:14:13
18,Ust-Koksa,RU,50.2696,85.6108,18.05,83,19,2.13,few clouds,2022-03-31 02:14:13
19,Coolum Beach,AU,-26.5333,153.1,82.35,68,52,1.01,broken clouds,2022-03-31 02:14:14
20,Hermanus,ZA,-34.4187,19.2345,61.84,82,99,1.88,overcast clouds,2022-03-31 02:14:14
21,New Norfolk,AU,-42.7826,147.0587,57.7,51,99,3.0,overcast clouds,2022-03-31 02:14:14
22,Camacha,PT,33.0833,-16.3333,58.42,77,40,9.22,scattered clouds,2022-03-31 02:14:15
23,Bredasdorp,ZA,-34.5322,20.0403,60.03,81,100,3.13,overcast clouds,2022-03-31 02:14:15
24,Kaitangata,NZ,-46.2817,169.8464,66.4,62,87,4.21,overcast clouds,2022-03-31 02:14:16
25,Hobart,AU,-42.8794,147.3294,58.05,75,75,11.5,broken clouds,2022-03-31 02:09:33
26,Cabo San Lucas,MX,22.8909,-109.9124,70.61,73,20,10.36,few clouds,2022-03-31 02:14:16
27,Laguna,US,38.421,-121.4238,62.4,72,75,8.05,broken clouds,2022-03-31 02:14:17
28,Victoria,HK,22.2855,114.1577,82.45,69,2,11.99,clear sky,2022-03-31 02:11:12
29,Frankfurt,DE,50.1167,8.6833,44.87,83,20,9.22,few clouds,2022-03-31 02:13:05
30,Bonthe,SL,7.5264,-12.505,78.17,93,7,5.21,clear sky,2022-03-31 02:14:18
31,Thompson,CA,55.7435,-97.8558,24.48,93,100,4.34,overcast clouds,2022-03-31 02:13:56
32,Arraial Do Cabo,BR,-22.9661,-42.0278,76.48,91,0,13.11,clear sky,2022-03-31 02:14:19
33,Virginia Beach,US,36.8529,-75.978,63.0,75,40,9.22,scattered clouds,2022-03-31 02:12:58
34,Half Moon Bay,US,37.4636,-122.4286,59.02,79,75,23.02,mist,2022-03-31 02:13:06
35,Betanzos,ES,43.2804,-8.2147,53.1,80,75,4.61,broken clouds,2022-03-31 02:14:19
36,Busselton,AU,-33.65,115.3333,75.36,58,45,15.41,scattered clouds,2022-03-31 02:14:20
37,East London,ZA,-33.0153,27.9116,69.39,84,100,7.38,light rain,2022-03-31 02:14:20
38,Mar Del Plata,AR,-38.0023,-57.5575,49.87,84,100,7.0,overcast clouds,2022-03-31 02:14:21
39,Achacachi,BO,-16.05,-68.6833,41.86,87,39,9.53,scattered clouds,2022-03-31 02:14:21
40,Lebu,CL,-37.6167,-73.65,53.08,82,0,21.3,clear sky,2022-03-31 02:14:22
41,Puerto Ayora,EC,-0.7393,-90.3518,75.54,97,100,5.99,moderate rain,2022-03-31 02:14:22
42,Shimoda,JP,34.6667,138.95,72.1,75,0,18.16,clear sky,2022-03-31 02:14:22
43,Pervoye Maya,RU,56.164,44.7196,13.03,95,99,3.67,overcast clouds,2022-03-31 02:14:23
44,Paamiut,GL,61.994,-49.6678,28.47,81,98,5.03,overcast clouds,2022-03-31 02:14:23
45,Tahe,CN,52.3333,124.7333,30.13,44,12,13.44,few clouds,2022-03-31 02:14:24
46,Mocuba,MZ,-16.8392,36.9856,69.24,97,75,3.15,broken clouds,2022-03-31 02:14:24
47,Saint-Philippe,RE,-21.3585,55.7679,78.39,71,91,15.95,overcast clouds,2022-03-31 02:14:25
48,San Patricio,US,28.017,-97.5169,79.93,26,0,10.22,clear sky,2022-03-31 02:14:25
49,Punta Arenas,CL,-53.15,-70.9167,50.11,57,75,19.57,broken clouds,2022-03-31 02:14:26
50,Tiksi,RU,71.6872,128.8694,-8.68,95,57,3.62,broken clouds,2022-03-31 02:14:26
51,Mgandu,TZ,-5.95,34.1333,60.35,97,100,6.87,light rain,2022-03-31 02:14:26
52,Aksarka,RU,66.5606,67.7975,13.26,95,100,13.35,snow,2022-03-31 02:14:27
53,Lerwick,GB,60.1545,-1.1494,35.6,63,64,19.77,broken clouds,2022-03-31 02:14:27
54,Kiruna,SE,67.8557,20.2251,16.72,79,100,4.61,overcast clouds,2022-03-31 02:14:28
55,Codrington,AU,-38.2667,141.9667,61.34,54,95,20.4,overcast clouds,2022-03-31 02:14:28
56,Tual,ID,-5.6667,132.75,80.49,74,100,4.36,moderate rain,2022-03-31 02:14:29
57,Charters Towers,AU,-20.1,146.2667,89.65,25,47,9.86,scattered clouds,2022-03-31 02:14:29
58,Posse,BR,-14.0931,-46.3694,70.56,56,88,2.51,overcast clouds,2022-03-31 02:14:29
59,Cidreira,BR,-30.1811,-50.2056,60.76,69,97,11.5,overcast clouds,2022-03-31 02:14:30
60,Luderitz,NA,-26.6481,15.1594,62.1,64,0,14.36,clear sky,2022-03-31 02:14:30
61,Castro,BR,-24.7911,-50.0119,63.95,95,100,3.62,overcast clouds,2022-03-31 02:14:31
62,Mahebourg,MU,-20.4081,57.7,79.25,76,92,22.68,light rain,2022-03-31 02:14:31
63,Hithadhoo,MV,-0.6,73.0833,82.45,69,8,5.91,clear sky,2022-03-31 02:14:32
64,Ribeira Grande,PT,38.5167,-28.7,61.29,89,100,5.55,overcast clouds,2022-03-31 02:14:32
65,Bengkulu,ID,-3.8004,102.2655,82.26,69,38,5.99,scattered clouds,2022-03-31 02:14:32
66,Bambanglipuro,ID,-7.95,110.2833,84.18,67,82,1.25,broken clouds,2022-03-31 02:14:33
67,Carndonagh,IE,55.25,-7.2667,34.79,59,2,7.67,clear sky,2022-03-31 02:14:33
68,Ocara,BR,-4.4908,-38.5967,72.7,93,99,3.15,overcast clouds,2022-03-31 02:14:34
69,Vila Franca Do Campo,PT,37.7167,-25.4333,57.61,88,79,2.8,broken clouds,2022-03-31 02:14:34
70,Kudahuvadhoo,MV,2.6708,72.8944,82.08,71,2,3.78,clear sky,2022-03-31 02:14:35
71,Crixas,BR,-14.5489,-49.9692,72.84,88,99,2.48,overcast clouds,2022-03-31 02:14:35
72,Kavieng,PG,-2.5744,150.7967,84.11,74,86,14.12,overcast clouds,2022-03-31 02:14:36
73,Port Hedland,AU,-20.3167,118.5667,93.25,52,41,11.5,scattered clouds,2022-03-31 02:14:36
74,Georgetown,MY,5.4112,100.3354,85.95,74,20,5.75,few clouds,2022-03-31 02:11:09
75,Berlevag,NO,70.8578,29.0864,24.6,71,100,18.28,light snow,2022-03-31 02:14:37
76,Shingu,JP,33.7333,135.9833,70.03,62,100,9.98,overcast clouds,2022-03-31 02:14:37
77,Alwar,IN,27.5667,76.6,81.82,13,0,3.47,clear sky,2022-03-31 02:14:38
78,Singaraja,ID,-8.112,115.0882,85.28,69,39,2.44,scattered clouds,2022-03-31 02:14:38
79,Maceio,BR,-9.6658,-35.7353,76.44,94,40,3.44,scattered clouds,2022-03-31 02:14:39
80,Jamestown,US,42.097,-79.2353,53.19,34,0,12.66,clear sky,2022-03-31 02:12:14
81,Campbell River,CA,50.0163,-125.2446,46.45,80,100,5.1,overcast clouds,2022-03-31 02:14:40
82,Puerto Colombia,CO,10.9878,-74.9547,80.69,84,67,23.09,broken clouds,2022-03-31 02:14:40
83,Pangody,RU,65.85,74.4859,9.95,85,69,22.08,broken clouds,2022-03-31 02:14:41
84,Grand Gaube,MU,-20.0064,57.6608,79.38,73,54,13.0,broken clouds,2022-03-31 02:14:41
85,Ponta Do Sol,PT,32.6667,-17.1,60.71,77,1,3.56,clear sky,2022-03-31 02:14:42
86,Butaritari,KI,3.0707,172.7902,81.05,70,1,8.86,clear sky,2022-03-31 02:14:42
87,Ahipara,NZ,-35.1667,173.1667,73.17,60,22,5.03,few clouds,2022-03-31 02:14:42
88,Cherlak,RU,54.155,74.8055,35.64,83,99,20.62,overcast clouds,2022-03-31 02:14:43
89,Pacific Grove,US,36.6177,-121.9166,59.02,79,100,9.22,overcast clouds,2022-03-31 02:14:43
90,Pahrump,US,36.2083,-115.9839,71.65,21,100,5.01,overcast clouds,2022-03-31 02:10:41
91,Srednekolymsk,RU,67.45,153.6833,3.42,83,98,6.15,overcast clouds,2022-03-31 02:14:44
92,Haines Junction,CA,60.7522,-137.5108,35.02,85,100,1.39,overcast clouds,2022-03-31 02:14:44
93,Rawson,AR,-43.3002,-65.1023,51.49,60,54,3.56,broken clouds,2022-03-31 02:10:13
94,Hilo,US,19.7297,-155.09,76.73,87,100,12.66,heavy intensity rain,2022-03-31 02:10:20
95,Kapaa,US,22.0752,-159.319,80.58,77,20,11.5,few clouds,2022-03-31 02:14:45
96,Lumeje,AO,-11.55,20.7833,63.75,95,100,1.16,overcast clouds,2022-03-31 02:11:17
97,North Bend,US,43.4065,-124.2243,52.92,85,20,9.22,few clouds,2022-03-31 02:14:46
98,Srandakan,ID,-7.9386,110.2506,84.31,67,83,1.48,broken clouds,2022-03-31 02:14:47
99,Casablanca,MA,33.5928,-7.6192,55.62,87,19,6.2,few clouds,2022-03-31 02:10:00
100,Carnarvon,AU,-24.8667,113.6333,80.67,78,75,5.75,light rain,2022-03-31 02:14:47
101,Dunda,TZ,-8.1167,34.25,63.54,98,100,1.05,overcast clouds,2022-03-31 02:14:48
102,Nuuk,GL,64.1835,-51.7216,15.78,94,71,4.9,broken clouds,2022-03-31 02:14:48
103,Sao Filipe,CV,14.8961,-24.4956,70.92,77,8,14.27,clear sky,2022-03-31 02:14:48
104,Uvira,CD,-3.4067,29.1458,70.84,89,100,4.18,light rain,2022-03-31 02:14:49
105,Teknaf,BD,20.8624,92.3058,82.69,71,6,2.77,clear sky,2022-03-31 02:14:49
106,Esperance,AU,-33.8667,121.9,69.67,66,100,15.19,overcast clouds,2022-03-31 02:14:50
107,Thinadhoo,MV,0.5333,72.9333,82.06,73,14,4.27,few clouds,2022-03-31 02:14:50
108,San Vicente,AR,-26.6167,-54.1333,50.81,82,100,7.23,overcast clouds,2022-03-31 02:14:51
109,Sisimiut,GL,66.9395,-53.6735,13.14,93,61,4.74,broken clouds,2022-03-31 02:14:51
110,Ilulissat,GL,69.2167,-51.1,19.42,93,100,5.75,overcast clouds,2022-03-31 02:14:51
111,Marquette,US,46.5333,-87.6335,31.44,94,100,8.48,light snow,2022-03-31 02:14:52
112,Bluff,NZ,-46.6,168.3333,62.04,81,100,6.29,overcast clouds,2022-03-31 02:14:52
113,Hearst,CA,49.6835,-83.6665,25.68,99,100,2.53,overcast clouds,2022-03-31 02:14:53
114,Chuy,UY,-33.6971,-53.4616,52.39,61,22,10.18,few clouds,2022-03-31 02:14:53
115,Arlit,NE,18.7369,7.3853,73.15,5,6,6.04,clear sky,2022-03-31 02:14:54
116,Vaini,TO,-21.2,-175.2,84.36,79,75,9.22,broken clouds,2022-03-31 02:14:54
117,Kahului,US,20.8947,-156.47,80.62,69,40,16.11,scattered clouds,2022-03-31 02:14:55
118,Shakawe,BW,-18.3667,21.85,66.22,93,97,3.47,overcast clouds,2022-03-31 02:14:55
119,Campanha,BR,-21.8361,-45.4006,63.99,91,6,1.54,clear sky,2022-03-31 02:14:56
120,Gravdal,NO,68.1214,13.5031,31.26,72,100,18.28,light snow,2022-03-31 02:14:56
121,Vila Velha,BR,-20.3297,-40.2925,78.75,89,0,4.61,clear sky,2022-03-31 02:14:57
122,Dikson,RU,73.5069,80.5464,23.23,86,100,11.34,overcast clouds,2022-03-31 02:14:57
123,Coahuayana,MX,18.7333,-103.6833,68.29,78,38,1.86,scattered clouds,2022-03-31 02:14:57
124,Nikolskoye,RU,59.7035,30.7861,23.81,92,25,6.71,scattered clouds,2022-03-31 02:14:58
125,Coihaique,CL,-45.5752,-72.0662,43.41,81,0,2.3,clear sky,2022-03-31 02:14:58
126,Belaya Gora,RU,68.5333,146.4167,0.32,88,86,3.51,overcast clouds,2022-03-31 02:14:59
127,Anupgarh,IN,29.1911,73.2086,76.53,12,0,7.54,clear sky,2022-03-31 02:14:59
128,Ubala,CO,4.7478,-72.5369,79.84,65,93,3.09,overcast clouds,2022-03-31 02:14:59
129,Emerald,AU,-23.5333,148.1667,89.35,34,0,13.67,clear sky,2022-03-31 02:15:00
130,Ust-Maya,RU,60.4167,134.5333,19.94,74,100,4.94,light snow,2022-03-31 02:15:00
131,Beira,MZ,-19.8436,34.8389,71.46,88,2,2.15,clear sky,2022-03-31 02:15:01
132,Vestmanna,FO,62.1564,-7.1664,27.52,80,98,5.75,overcast clouds,2022-03-31 02:15:01
133,Fairbanks,US,64.8378,-147.7164,29.08,45,0,11.5,clear sky,2022-03-31 02:15:02
134,Bianzhuang,CN,34.8486,118.0447,51.48,36,100,13.13,overcast clouds,2022-03-31 02:15:03
135,Nanortalik,GL,60.1432,-45.2371,34.79,82,100,3.13,overcast clouds,2022-03-31 02:15:03
136,Ilhabela,BR,-23.7781,-45.3581,78.08,78,95,3.15,heavy intensity rain,2022-03-31 02:15:04
137,Chota,PE,-6.55,-78.65,54.82,95,100,3.06,light rain,2022-03-31 02:15:05
138,Pevek,RU,69.7008,170.3133,-8.64,92,68,2.01,broken clouds,2022-03-31 02:15:05
139,Tsaratanana,MG,-16.7833,47.65,69.6,79,10,10.8,clear sky,2022-03-31 02:15:06
140,Sinnamary,GF,5.3833,-52.95,76.28,81,100,7.29,overcast clouds,2022-03-31 02:15:07
141,Kirgiz-Miyaki,RU,53.6324,54.7979,32.31,99,100,6.62,snow,2022-03-31 02:15:07
142,Sao Joao Da Barra,BR,-21.6403,-41.0511,76.6,91,0,11.41,clear sky,2022-03-31 02:15:08
143,Samarai,PG,-10.6167,150.6667,85.3,71,14,10.31,few clouds,2022-03-31 02:15:08
144,Bafoulabe,ML,13.8065,-10.8321,91.71,11,26,3.11,scattered clouds,2022-03-31 02:15:09
145,Gbarnga,LR,6.9956,-9.4722,72.95,99,49,2.1,scattered clouds,2022-03-31 02:15:09
146,San Pedro De Macoris,DO,18.4616,-69.2972,72.21,86,16,11.34,few clouds,2022-03-31 02:15:10
147,Kalabo,ZM,-14.97,22.6814,64.69,98,100,2.68,moderate rain,2022-03-31 02:15:10
148,Ixtapa,MX,20.7,-105.2,72.63,78,0,10.36,clear sky,2022-03-31 02:15:10
149,Narsaq,GL,60.9167,-46.05,48.42,78,100,3.62,overcast clouds,2022-03-31 02:15:11
150,Alofi,NU,-19.0595,-169.9187,84.09,79,75,8.05,broken clouds,2022-03-31 02:15:11
151,Bilibino,RU,68.0546,166.4372,10.33,60,99,1.25,overcast clouds,2022-03-31 02:15:12
152,Palmeirais,BR,-5.9778,-43.0633,74.64,90,100,3.15,overcast clouds,2022-03-31 02:15:12
153,Libenge,CD,3.65,18.6333,73.69,64,42,3.89,scattered clouds,2022-03-31 02:15:13
154,Pangnirtung,CA,66.1451,-65.7125,9.73,90,93,4.41,overcast clouds,2022-03-31 02:15:13
155,Muli,MV,2.9167,73.5667,82.29,72,5,4.68,clear sky,2022-03-31 02:15:14
156,Chokurdakh,RU,70.6333,147.9167,-4.99,93,25,3.38,scattered clouds,2022-03-31 02:15:14
157,Nikolayevsk-Na-Amure,RU,53.1406,140.73,26.2,72,10,10.13,clear sky,2022-03-31 02:15:15
158,Tura,IN,25.5198,90.2201,72.54,76,92,2.73,overcast clouds,2022-03-31 02:14:42
159,Guerrero Negro,MX,27.9769,-114.0611,59.9,78,0,18.05,clear sky,2022-03-31 02:15:15
160,Nijar,ES,36.9665,-2.206,56.66,55,0,8.05,clear sky,2022-03-31 02:15:16
161,Mayumba,GA,-3.432,10.6554,76.26,91,88,4.52,overcast clouds,2022-03-31 02:15:17
162,Andenes,NO,69.3143,16.1194,27.93,86,75,13.8,light snow,2022-03-31 02:15:17
163,Cherskiy,RU,68.75,161.3,-0.72,84,97,4.41,overcast clouds,2022-03-31 02:15:17
164,Atar,MR,20.5169,-13.0499,71.51,22,100,11.27,overcast clouds,2022-03-31 02:15:18
165,Provideniya,RU,64.3833,-173.3,19.51,79,100,20.13,overcast clouds,2022-03-31 02:15:18
166,Walsrode,DE,52.8667,9.6,38.08,85,100,8.46,overcast clouds,2022-03-31 02:15:19
167,Severo-Kurilsk,RU,50.6789,156.125,31.01,76,38,12.88,scattered clouds,2022-03-31 02:15:19
168,Sorong,ID,-0.8833,131.25,83.37,72,91,5.75,overcast clouds,2022-03-31 02:15:20
169,Geraldton,AU,-28.7667,114.6,84.61,58,100,18.41,overcast clouds,2022-03-31 02:13:01
170,Tabuk,PH,17.4189,121.4443,84.42,62,89,5.99,overcast clouds,2022-03-31 02:15:20
171,Roald,NO,62.5833,6.1333,34.9,93,75,3.44,light snow,2022-03-31 02:15:21
172,Olafsvik,IS,64.8945,-23.7142,37.89,77,90,7.63,overcast clouds,2022-03-31 02:15:21
173,Paita,PE,-5.0892,-81.1144,73.17,77,66,15.82,broken clouds,2022-03-31 02:15:22
174,Necochea,AR,-38.5473,-58.7368,54.1,63,87,18.92,overcast clouds,2022-03-31 02:15:22
175,Los Llanos De Aridane,ES,28.6585,-17.9182,58.75,82,20,9.22,few clouds,2022-03-31 02:15:23
176,Saldanha,ZA,-33.0117,17.9442,60.91,87,42,9.8,scattered clouds,2022-03-31 02:15:23
177,Kodiak,US,57.79,-152.4072,38.71,93,100,12.66,light rain,2022-03-31 02:11:39
178,Kajaani,FI,64.2273,27.7285,17.65,86,75,2.3,broken clouds,2022-03-31 02:15:24
179,Saskylakh,RU,71.9167,114.0833,0.18,94,100,8.66,overcast clouds,2022-03-31 02:15:24
180,Torbay,CA,47.6666,-52.7314,33.58,87,75,16.11,broken clouds,2022-03-31 02:15:16
181,Sangar,RU,63.9242,127.4739,10.42,88,45,3.49,scattered clouds,2022-03-31 02:15:25
182,Kushiro,JP,42.975,144.3747,41.95,65,40,11.5,scattered clouds,2022-03-31 02:15:26
183,Naguabo,PR,18.2116,-65.7349,76.82,75,75,11.5,broken clouds,2022-03-31 02:15:26
184,Axim,GH,4.8699,-2.2405,80.08,88,72,7.09,broken clouds,2022-03-31 02:15:27
185,Boralday,KZ,43.3578,76.8594,37.26,81,0,2.24,clear sky,2022-03-31 02:15:27
186,Baykit,RU,61.67,96.37,27.84,91,100,8.86,overcast clouds,2022-03-31 02:15:27
187,Karratha,AU,-20.7377,116.8463,88.45,57,96,10.38,light rain,2022-03-31 02:15:28
188,Atasu,KZ,48.6814,71.6433,23.67,78,74,5.75,broken clouds,2022-03-31 02:15:28
189,Ostrovnoy,RU,68.0531,39.5131,8.33,91,97,4.9,overcast clouds,2022-03-31 02:15:29
190,Maniitsoq,GL,65.4167,-52.9,21.13,84,32,7.65,scattered clouds,2022-03-31 02:15:29
191,Grindavik,IS,63.8424,-22.4338,37.87,65,100,4.61,overcast clouds,2022-03-31 02:15:30
192,Hasaki,JP,35.7333,140.8333,68.4,71,2,15.46,clear sky,2022-03-31 02:15:30
193,Khatanga,RU,71.9667,102.5,14.23,96,93,6.24,overcast clouds,2022-03-31 02:15:31
194,Dothan,US,31.2232,-85.3905,72.7,77,99,7.0,overcast clouds,2022-03-31 02:15:31
195,Barrow,US,71.2906,-156.7887,-0.38,71,0,17.27,clear sky,2022-03-31 02:15:32
196,Ipora,BR,-16.4419,-51.1178,68.74,90,49,1.74,scattered clouds,2022-03-31 02:15:32
197,Sitka,US,57.0531,-135.33,42.69,81,100,5.75,light rain,2022-03-31 02:15:33
198,Tatawin,TN,32.9297,10.4518,67.08,58,97,7.7,overcast clouds,2022-03-31 02:15:33
199,Aklavik,CA,68.2191,-135.0107,-9.17,90,100,14.12,overcast clouds,2022-03-31 02:15:34
200,Meulaboh,ID,4.1363,96.1285,79.47,82,78,2.62,broken clouds,2022-03-31 02:15:34
201,Chicama,PE,-7.8447,-79.1469,66.74,75,82,7.31,broken clouds,2022-03-31 02:15:35
202,Varna,BG,43.2167,27.9167,56.23,82,0,0.0,light rain,2022-03-31 02:11:24
203,Mabaruma,GY,8.2,-59.7833,72.34,93,99,2.82,overcast clouds,2022-03-31 02:15:35
204,Tuzha,RU,57.6062,47.936,6.51,96,63,4.41,broken clouds,2022-03-31 02:15:36
205,Christchurch,NZ,-43.5333,172.6333,69.42,77,75,16.11,broken clouds,2022-03-31 02:12:58
206,Okhotsk,RU,59.3833,143.3,18.81,65,9,14.18,clear sky,2022-03-31 02:15:36
207,San Cristobal,VE,7.7669,-72.225,71.8,65,99,1.36,overcast clouds,2022-03-31 02:15:37
208,Neiafu,TO,-18.65,-173.9833,83.08,83,75,6.91,light rain,2022-03-31 02:15:38
209,Portland,US,45.5234,-122.6762,54.63,58,75,11.5,broken clouds,2022-03-31 02:12:58
210,Sabang,ID,5.8933,95.3214,81.91,74,83,9.69,broken clouds,2022-03-31 02:15:38
211,Souillac,MU,-20.5167,57.5167,75.58,88,40,17.27,light rain,2022-03-31 02:15:39
212,Kasama,ZM,-10.2129,31.1808,61.95,99,98,3.94,light rain,2022-03-31 02:15:39
213,Tabory,RU,58.5198,64.5495,22.05,82,8,10.89,clear sky,2022-03-31 02:15:39
214,Prnjavor,BA,44.8703,17.6628,49.26,83,100,3.24,light rain,2022-03-31 02:15:40
215,Teya,RU,60.3778,92.6267,29.01,90,98,11.45,overcast clouds,2022-03-31 02:15:40
216,Isangel,VU,-19.55,169.2667,84.16,75,94,10.27,overcast clouds,2022-03-31 02:15:41
217,Koumac,NC,-20.5667,164.2833,86.4,66,30,1.97,scattered clouds,2022-03-31 02:15:41
218,Havoysund,NO,70.9963,24.6622,26.83,65,100,15.9,light snow,2022-03-31 02:15:42
219,The Valley,AI,18.217,-63.0578,78.66,70,12,22.15,few clouds,2022-03-31 02:15:42
220,Maldonado,UY,-34.6667,-54.9167,58.23,62,75,13.13,broken clouds,2022-03-31 02:15:42
221,Itaituba,BR,-4.2761,-55.9836,71.51,100,100,0.54,overcast clouds,2022-03-31 02:15:43
222,Stornoway,GB,58.2093,-6.3865,37.36,81,75,16.11,broken clouds,2022-03-31 02:15:44
223,Qaanaaq,GL,77.484,-69.3632,13.8,74,97,7.14,overcast clouds,2022-03-31 02:15:44
224,Noumea,NC,-22.2763,166.4572,91.38,99,23,7.47,few clouds,2022-03-31 02:13:41
225,Phalombe,MW,-15.8064,35.6507,63.55,97,30,1.81,scattered clouds,2022-03-31 02:15:45
226,Leningradskiy,RU,69.3833,178.4167,-7.46,89,100,5.61,overcast clouds,2022-03-31 02:15:45
227,Casillas,GT,14.4222,-90.2442,69.22,94,29,2.59,scattered clouds,2022-03-31 02:15:46
228,Huntington,US,38.4193,-82.4452,77.9,23,0,16.11,clear sky,2022-03-31 02:15:46
229,Sahuaripa,MX,29.05,-109.2333,67.19,26,0,3.24,clear sky,2022-03-31 02:15:46
230,Kruisfontein,ZA,-34.0033,24.7314,57.88,81,100,2.73,overcast clouds,2022-03-31 02:15:47
231,Riyadh,SA,24.6877,46.7219,62.74,12,20,7.09,few clouds,2022-03-31 02:12:43
232,Boo,SE,59.3333,18.2833,25.77,85,15,0.0,few clouds,2022-03-31 02:15:48
233,Yumen,CN,40.2833,97.2,42.51,34,14,11.86,few clouds,2022-03-31 02:15:48
234,Mehamn,NO,71.0357,27.8492,24.44,74,100,16.62,light snow,2022-03-31 02:15:48
235,Vao,NC,-22.6667,167.4833,79.23,85,8,17.58,clear sky,2022-03-31 02:15:49
236,Terrace,CA,54.5163,-128.6035,40.66,95,99,3.91,light rain,2022-03-31 02:12:58
237,Chifeng,CN,42.2683,118.9636,37.85,23,91,20.69,overcast clouds,2022-03-31 02:15:49
238,Dhidhdhoo,MV,6.8833,73.1,83.01,71,63,1.74,broken clouds,2022-03-31 02:15:50
239,Chachapoyas,PE,-6.2317,-77.869,56.44,95,100,1.3,light rain,2022-03-31 02:15:50
240,Alvorada,BR,-12.48,-49.1247,72.43,92,63,3.04,broken clouds,2022-03-31 02:15:49
241,Clyde River,CA,70.4692,-68.5914,5.23,85,100,12.66,light snow,2022-03-31 02:15:51
242,Riosucio,CO,5.4216,-75.7032,60.1,98,100,1.41,moderate rain,2022-03-31 02:15:52
243,Vardo,NO,70.3705,31.1107,27.54,66,100,20.07,light snow,2022-03-31 02:15:52
244,Redmond,US,47.674,-122.1215,50.86,87,100,4.0,light rain,2022-03-31 02:15:52
245,Yellowknife,CA,62.456,-114.3525,19.56,63,100,8.99,overcast clouds,2022-03-31 02:13:25
246,Margate,GB,51.3813,1.3862,40.69,78,100,10.0,overcast clouds,2022-03-31 02:15:53
247,Faanui,PF,-16.4833,-151.75,82.49,68,13,14.36,few clouds,2022-03-31 02:15:53
248,Plouzane,FR,48.3833,-4.6167,46.72,87,100,8.05,mist,2022-03-31 02:15:54
249,College,US,64.8569,-147.8028,29.07,44,20,11.5,few clouds,2022-03-31 02:14:27
250,Verkhnyaya Inta,RU,65.9811,60.3094,10.81,96,100,10.2,overcast clouds,2022-03-31 02:15:55
251,Touros,BR,-5.1989,-35.4608,79.38,82,100,11.72,overcast clouds,2022-03-31 02:15:55
252,Djenne,ML,13.9061,-4.5533,84.29,6,2,8.52,clear sky,2022-03-31 02:15:55
253,Saint George,US,37.1041,-113.5841,68.63,28,0,8.05,clear sky,2022-03-31 02:11:17
254,Maraba,BR,-5.3686,-49.1178,72.59,99,100,2.68,overcast clouds,2022-03-31 02:15:56
255,Klaksvik,FO,62.2266,-6.589,29.32,69,98,18.63,light snow,2022-03-31 02:15:56
256,Adrar,MR,20.5022,-10.0711,71.42,18,100,13.4,overcast clouds,2022-03-31 02:15:57
257,Muros,ES,42.7762,-9.0603,51.1,88,100,2.62,overcast clouds,2022-03-31 02:15:57
258,Tasiilaq,GL,65.6145,-37.6368,33.96,98,100,11.3,snow,2022-03-31 02:15:58
259,Saint Pete Beach,US,27.7253,-82.7412,77.14,74,0,9.22,clear sky,2022-03-31 02:15:58
260,Vytegra,RU,61.0064,36.4481,22.26,91,100,10.13,overcast clouds,2022-03-31 02:15:59
261,Taoudenni,ML,22.6783,-3.9836,78.06,15,100,14.14,overcast clouds,2022-03-31 02:15:59
262,Port Blair,IN,11.6667,92.75,82.44,78,40,4.61,scattered clouds,2022-03-31 02:16:00
263,Hollola,FI,61.05,25.4333,17.55,98,56,3.15,broken clouds,2022-03-31 02:16:00
264,Farmington,US,36.7281,-108.2187,52.48,30,0,14.97,clear sky,2022-03-31 02:13:01
265,Boyle,US,37.6334,-84.8666,75.49,35,0,21.85,clear sky,2022-03-31 02:16:01
266,San Carlos De Bariloche,AR,-41.1456,-71.3082,38.95,70,0,4.61,clear sky,2022-03-31 02:16:02
267,Chapleau,CA,47.8405,-83.4034,26.78,97,100,4.79,light snow,2022-03-31 02:16:02
268,Porto Novo,BJ,6.4965,2.6036,84.02,79,100,7.07,overcast clouds,2022-03-31 02:16:03
269,Kalemie,CD,-5.9475,29.1947,68.76,95,100,2.8,moderate rain,2022-03-31 02:16:03
270,Wolbrom,PL,50.3796,19.7583,39.54,96,100,13.44,light rain,2022-03-31 02:16:03
271,Aksu,CN,41.1231,80.2644,47.37,43,45,8.05,scattered clouds,2022-03-31 02:16:04
272,Bolshoye Nagatkino,RU,54.5196,47.9679,26.04,98,100,3.27,overcast clouds,2022-03-31 02:16:05
273,Norman Wells,CA,65.282,-126.8329,-0.36,71,100,19.57,light snow,2022-03-31 02:16:05
274,Newton,US,42.337,-71.2092,46.06,37,100,10.36,overcast clouds,2022-03-31 02:14:19
275,Serafimovskiy,RU,54.4241,53.7964,24.49,95,100,3.83,light snow,2022-03-31 02:16:06
276,Abashiri,JP,44.0213,144.2697,43.09,52,20,8.05,few clouds,2022-03-31 02:16:06
277,Solnechnyy,RU,50.7214,136.6319,27.86,81,98,3.42,light snow,2022-03-31 02:16:07
278,Limbuhan,PH,11.8838,124.0501,81.57,78,8,12.06,clear sky,2022-03-31 02:16:07
279,Langenhagen,DE,52.45,9.75,41.14,84,100,1.01,overcast clouds,2022-03-31 02:16:07
280,Manzhouli,CN,49.6,117.4333,31.33,27,0,13.71,clear sky,2022-03-31 02:16:08
281,Boyolangu,ID,-8.1181,111.8935,83.37,73,80,2.35,light rain,2022-03-31 02:16:08
282,Gari,RU,59.4307,62.3497,16.68,89,7,10.42,clear sky,2022-03-31 02:16:09
283,Bollnas,SE,61.3482,16.3946,20.62,93,44,3.0,scattered clouds,2022-03-31 02:16:09
284,Mandera,KE,3.9366,41.867,80.24,67,34,14.5,scattered clouds,2022-03-31 02:16:10
285,Sur,OM,22.5667,59.5289,77.02,58,0,5.19,clear sky,2022-03-31 02:16:10
286,Yar-Sale,RU,66.8333,70.8333,16.48,95,100,19.04,snow,2022-03-31 02:16:11
287,Fortuna,US,40.5982,-124.1573,52.14,80,100,20.71,overcast clouds,2022-03-31 02:16:11
288,Allanridge,ZA,-27.7543,26.6438,59.47,56,2,3.38,clear sky,2022-03-31 02:16:11
289,Ancud,CL,-41.8697,-73.8203,47.23,84,15,4.72,few clouds,2022-03-31 02:16:12
290,Padang,ID,-0.9492,100.3543,80.65,63,8,3.18,clear sky,2022-03-31 02:16:12
291,Nizhniy Ingash,RU,56.2,96.53,33.73,66,68,14.38,broken clouds,2022-03-31 02:16:13
292,Grand Baie,MU,-20.0182,57.5802,79.45,73,37,10.0,scattered clouds,2022-03-31 02:16:14
293,Tuatapere,NZ,-46.1333,167.6833,67.89,57,100,3.62,overcast clouds,2022-03-31 02:16:14
294,Cairns,AU,-16.9167,145.7667,97.07,46,89,4.61,overcast clouds,2022-03-31 02:16:15
295,Dafeng,CN,23.4517,108.5881,70.77,95,100,2.33,overcast clouds,2022-03-31 02:16:15
296,Port-Cartier,CA,50.0334,-66.8654,34.02,85,9,8.05,clear sky,2022-03-31 02:16:15
297,Vestmannaeyjar,IS,63.4427,-20.2734,37.24,68,65,7.11,broken clouds,2022-03-31 02:16:16
298,Pudozh,RU,61.8099,36.5345,19.08,97,100,4.97,light snow,2022-03-31 02:16:17
299,Santa Ana,US,33.7456,-117.8678,66.65,77,75,8.05,broken clouds,2022-03-31 02:12:42
300,Rio Grande,BR,-32.035,-52.0986,52.95,48,92,20.02,overcast clouds,2022-03-31 02:16:17
301,Shuangcheng,CN,45.35,126.2833,38.88,28,0,13.96,clear sky,2022-03-31 02:16:18
302,Sangin,AF,32.0728,64.8359,57.99,19,0,0.69,clear sky,2022-03-31 02:16:18
303,Westport,US,41.1415,-73.3579,42.1,67,40,5.75,scattered clouds,2022-03-31 02:16:19
304,Waipawa,NZ,-41.4122,175.5153,67.35,67,5,8.52,clear sky,2022-03-31 02:16:19
305,Alexandria,EG,31.2156,29.9553,57.2,51,65,7.47,broken clouds,2022-03-31 02:12:40
306,Merauke,ID,-8.4667,140.3333,84.45,72,13,8.16,few clouds,2022-03-31 02:12:54
307,Naze,JP,28.3667,129.4833,70.72,85,40,5.17,scattered clouds,2022-03-31 02:16:20
308,Havre-Saint-Pierre,CA,50.2334,-63.5986,35.96,69,0,13.8,clear sky,2022-03-31 02:16:20
309,Bartica,GY,6.4,-58.6167,73.72,93,100,2.95,overcast clouds,2022-03-31 02:16:21
310,Svarstad,NO,59.399,9.9698,30.99,55,43,3.91,scattered clouds,2022-03-31 02:16:21
311,Bilma,NE,18.6853,12.9164,70.9,5,29,7.2,scattered clouds,2022-03-31 02:16:22
312,Noyabrsk,RU,63.1994,75.4507,17.76,95,100,3.78,snow,2022-03-31 02:16:22
313,Nioro,GM,13.35,-15.75,80.69,28,100,4.29,overcast clouds,2022-03-31 02:16:23
314,Naryan-Mar,RU,67.6713,53.087,-10.7,100,100,5.23,overcast clouds,2022-03-31 02:16:23
315,Chibombo,ZM,-14.6569,28.0706,60.03,98,20,4.36,few clouds,2022-03-31 02:16:23
316,Morondava,MG,-20.2833,44.2833,76.62,63,0,11.27,clear sky,2022-03-31 02:16:24
317,San Quintin,MX,30.4833,-115.95,59.63,79,41,13.91,scattered clouds,2022-03-31 02:16:24
318,Alta,NO,69.9689,23.2717,21.18,83,100,3.44,overcast clouds,2022-03-31 02:16:25
319,Lethem,GY,3.3803,-59.7968,80.76,57,30,10.71,scattered clouds,2022-03-31 02:16:25
320,Northam,GB,51.0333,-4.2167,38.61,81,100,18.7,light rain,2022-03-31 02:16:26
321,Bagdarin,RU,54.4333,113.6,22.91,61,4,2.06,clear sky,2022-03-31 02:16:26
322,Talnakh,RU,69.4865,88.3972,31.21,94,100,11.3,light snow,2022-03-31 02:16:27
323,Deputatskiy,RU,69.3,139.9,-0.74,82,18,1.61,few clouds,2022-03-31 02:16:27
324,Cayenne,GF,4.9333,-52.3333,79.09,1,75,2.3,broken clouds,2022-03-31 02:16:27
325,Inyonga,TZ,-6.7167,32.0667,63.07,97,100,4.03,light rain,2022-03-31 02:16:28
326,Mount Gambier,AU,-37.8333,140.7667,64.31,48,100,20.71,overcast clouds,2022-03-31 02:16:28
327,Sioux Lookout,CA,50.1001,-91.917,26.67,80,100,17.27,overcast clouds,2022-03-31 02:15:19
328,Gamba,GA,-2.65,10.0,76.35,93,75,4.5,broken clouds,2022-03-31 02:11:29
329,Poum,NC,-20.2333,164.0167,82.56,78,3,12.28,clear sky,2022-03-31 02:16:29
330,Bambous Virieux,MU,-20.3428,57.7575,79.21,88,40,17.27,moderate rain,2022-03-31 02:16:30
331,Galle,LK,6.0367,80.217,80.08,82,85,3.02,overcast clouds,2022-03-31 02:16:30
332,Zarechnyy,RU,53.2036,45.1923,31.51,99,100,4.94,light snow,2022-03-31 02:16:30
333,Severo-Yeniseyskiy,RU,60.3725,93.0408,25.7,89,84,12.24,broken clouds,2022-03-31 02:16:31
334,Kysyl-Syr,RU,63.8986,122.7617,13.15,86,100,2.91,overcast clouds,2022-03-31 02:16:31
335,Ulladulla,AU,-35.35,150.4667,64.76,83,99,21.25,overcast clouds,2022-03-31 02:16:32
336,Fort Nelson,CA,58.8053,-122.7002,42.39,49,75,2.3,broken clouds,2022-03-31 02:15:15
337,Kedrovyy,RU,56.1667,91.8167,34.21,83,100,12.62,overcast clouds,2022-03-31 02:12:12
338,Lovozero,RU,68.005,35.0117,7.43,98,98,6.08,overcast clouds,2022-03-31 02:16:33
339,Salalah,OM,17.0151,54.0924,73.49,60,0,2.3,clear sky,2022-03-31 02:16:33
340,Pingliang,CN,35.5392,106.6861,47.82,26,100,4.16,overcast clouds,2022-03-31 02:16:33
341,Jatai,BR,-17.8814,-51.7144,68.31,85,14,1.88,few clouds,2022-03-31 02:16:34
342,High Level,CA,58.5169,-117.136,37.51,60,100,5.75,light rain,2022-03-31 02:16:34
343,Ketchikan,US,55.3422,-131.6461,45.07,81,75,5.75,broken clouds,2022-03-31 02:13:55
344,Vicuna,CL,-30.0319,-70.7081,49.73,46,0,1.59,clear sky,2022-03-31 02:15:23
345,Cortez,US,37.3489,-108.5859,47.16,41,0,9.22,clear sky,2022-03-31 02:16:35
346,Khash,IR,28.2211,61.2158,53.35,16,0,4.97,clear sky,2022-03-31 02:16:36
347,Iqaluit,CA,63.7506,-68.5145,26.33,93,100,8.05,light snow,2022-03-31 02:16:36
348,Avera,US,33.194,-82.5271,73.45,74,93,18.28,overcast clouds,2022-03-31 02:16:36
349,Bure,ET,10.7,37.0667,63.61,40,13,2.59,few clouds,2022-03-31 02:16:37
350,Shenjiamen,CN,29.9576,122.298,54.07,91,100,16.4,overcast clouds,2022-03-31 02:13:07
351,Sechura,PE,-5.5569,-80.8222,72.19,76,26,14.34,scattered clouds,2022-03-31 02:16:37
352,Koster,ZA,-25.863,26.8976,56.46,55,0,2.17,clear sky,2022-03-31 02:16:38
353,Varberg,SE,57.1056,12.2508,25.93,60,3,3.24,clear sky,2022-03-31 02:16:39
354,Pisco,PE,-13.7,-76.2167,66.25,77,0,14.97,clear sky,2022-03-31 02:16:39
355,Acajutla,SV,13.5928,-89.8275,80.8,71,64,5.7,broken clouds,2022-03-31 02:16:39
356,Sibolga,ID,1.7427,98.7792,82.81,64,16,1.48,few clouds,2022-03-31 02:16:40
357,Pochutla,MX,15.7432,-96.4661,78.82,64,59,8.79,broken clouds,2022-03-31 02:16:40
358,Ternate,ID,0.8,127.4,83.88,69,89,6.58,overcast clouds,2022-03-31 02:16:41
359,Atagay,RU,55.1033,99.3875,35.67,63,100,7.31,overcast clouds,2022-03-31 02:16:41
360,Koslan,RU,63.4564,48.8989,12.87,96,100,5.28,overcast clouds,2022-03-31 02:16:42
361,Jalu,LY,29.0331,21.5482,66.11,27,41,10.89,scattered clouds,2022-03-31 02:16:42
362,Wuwei,CN,37.9281,102.6414,46.8,28,100,3.0,overcast clouds,2022-03-31 02:16:43
363,Bethel,US,41.3712,-73.414,38.64,63,0,3.44,clear sky,2022-03-31 02:12:20
364,Petropavlovsk-Kamchatskiy,RU,53.0452,158.6483,34.39,51,75,15.66,broken clouds,2022-03-31 02:16:43
365,Mamou,GN,10.5,-12.0,73.44,64,3,3.51,clear sky,2022-03-31 02:16:44
366,Nexo,DK,55.0607,15.1306,28.49,46,36,13.15,scattered clouds,2022-03-31 02:13:10
367,Curup,ID,-3.4667,102.5333,78.49,58,38,2.35,scattered clouds,2022-03-31 02:16:44
368,Te Anau,NZ,-45.4167,167.7167,69.93,47,100,3.91,overcast clouds,2022-03-31 02:16:45
369,Eureka,US,40.8021,-124.1637,53.67,78,100,8.99,overcast clouds,2022-03-31 02:15:11
370,Trelew,AR,-43.249,-65.3051,50.22,62,82,5.57,broken clouds,2022-03-31 02:16:45
371,Mayor Pablo Lagerenza,PY,-19.9309,-60.7718,51.55,75,100,14.38,overcast clouds,2022-03-31 02:16:46
372,Auxerre,FR,47.8,3.5667,44.64,94,98,5.97,overcast clouds,2022-03-31 02:16:46
373,Namie,JP,37.4833,141.0,60.71,82,100,15.39,overcast clouds,2022-03-31 02:16:47
374,Alvik,SE,60.7477,14.8746,24.87,96,39,2.44,scattered clouds,2022-03-31 02:16:47
375,Kondagaon,IN,19.6,81.6667,79.99,21,23,2.98,few clouds,2022-03-31 02:16:48
376,Tuy Hoa,VN,13.0833,109.3,75.31,93,100,13.58,overcast clouds,2022-03-31 02:16:48
377,Nemuro,JP,43.3236,145.575,36.32,72,92,2.57,overcast clouds,2022-03-31 02:14:20
378,Port Augusta,AU,-32.5,137.7667,70.07,31,0,19.13,clear sky,2022-03-31 02:16:49
379,Chegutu,ZW,-18.1302,30.1407,61.03,84,46,3.6,scattered clouds,2022-03-31 02:16:49
380,Dudinka,RU,69.4058,86.1778,31.62,88,100,20.96,overcast clouds,2022-03-31 02:16:50
381,Edmond,US,35.6528,-97.4781,48.83,52,33,7.0,scattered clouds,2022-03-31 02:16:50
382,Paris,FR,48.8534,2.3488,46.18,85,100,6.91,overcast clouds,2022-03-31 02:15:00
383,Anori,BR,-3.7728,-61.6442,72.7,99,100,2.82,overcast clouds,2022-03-31 02:16:51
384,Constitucion,CL,-35.3333,-72.4167,54.18,58,0,8.43,clear sky,2022-03-31 02:15:56
385,San Rafael,AR,-34.6177,-68.3301,52.75,22,87,5.44,overcast clouds,2022-03-31 02:16:51
386,Saint-Francois,FR,46.4154,3.9054,47.68,88,100,5.75,overcast clouds,2022-03-31 02:16:52
387,Lagoa,PT,39.05,-27.9833,59.99,90,97,5.97,overcast clouds,2022-03-31 02:16:52
388,Strezhevoy,RU,60.7333,77.5889,31.64,97,100,21.05,snow,2022-03-31 02:16:53
389,Krasnogorskiy,RU,54.6025,61.231,31.28,98,100,2.66,overcast clouds,2022-03-31 02:16:53
390,Rognan,NO,67.0953,15.3878,26.89,93,64,6.38,broken clouds,2022-03-31 02:16:53
391,Basco,PH,20.4487,121.9702,79.59,82,100,13.22,overcast clouds,2022-03-31 02:16:54
392,Lufilufi,WS,-13.8745,-171.5986,89.38,74,75,18.59,light rain,2022-03-31 02:16:54
393,Porto Velho,BR,-8.7619,-63.9039,75.25,94,20,3.44,few clouds,2022-03-31 02:16:55
394,Scarborough,GB,54.2797,-0.4044,37.9,84,84,5.99,broken clouds,2022-03-31 02:16:45
395,Bintulu,MY,3.1667,113.0333,86.41,84,20,3.44,thunderstorm,2022-03-31 02:16:56
396,Praia Da Vitoria,PT,38.7333,-27.0667,61.75,94,40,3.22,scattered clouds,2022-03-31 02:16:56
397,Yeppoon,AU,-23.1333,150.7333,87.58,39,0,9.44,clear sky,2022-03-31 02:16:57
398,Tshela,CD,-4.9833,12.9333,72.48,99,100,1.59,overcast clouds,2022-03-31 02:16:57
399,Caruray,PH,10.3094,119.0128,86.5,66,98,5.32,overcast clouds,2022-03-31 02:16:57
400,Hervey Bay,AU,-25.2986,152.8535,79.12,58,23,2.89,few clouds,2022-03-31 02:16:58
401,Severodvinsk,RU,64.5635,39.8302,12.31,97,94,2.82,overcast clouds,2022-03-31 02:16:58
402,Santa Helena De Goias,BR,-17.8136,-50.5969,71.56,76,9,2.57,clear sky,2022-03-31 02:16:59
403,Rovaniemi,FI,66.5,25.7167,22.41,79,75,8.05,broken clouds,2022-03-31 02:16:59
404,Bandrele,YT,-12.9067,45.1914,80.35,83,100,4.61,light rain,2022-03-31 02:17:00
405,Dingle,PH,10.9995,122.6711,87.3,61,25,11.83,scattered clouds,2022-03-31 02:17:00
406,Trinidad,BO,-14.8333,-64.9,73.56,98,87,3.4,overcast clouds,2022-03-31 02:17:01
407,Sorland,NO,67.667,12.6934,33.21,69,100,21.16,light snow,2022-03-31 02:17:01
408,Sag,RO,45.6486,21.1756,55.0,64,100,11.3,light rain,2022-03-31 02:17:02
409,Nome,US,64.5011,-165.4064,37.17,69,0,17.27,clear sky,2022-03-31 02:17:02
410,Mount Isa,AU,-20.7333,139.5,89.37,22,5,14.97,clear sky,2022-03-31 02:17:03
411,Gat,IL,31.61,34.7642,57.4,69,50,0.74,scattered clouds,2022-03-31 02:17:03
412,Siyabuswa,ZA,-25.1132,29.0445,62.58,50,1,5.1,clear sky,2022-03-31 02:17:04
413,Yarada,IN,17.65,83.2667,84.52,79,20,8.05,mist,2022-03-31 02:17:04
414,Challapata,BO,-18.9,-66.7667,50.83,57,24,9.48,few clouds,2022-03-31 02:17:05
415,Maarianhamina,AX,60.0973,19.9348,19.26,93,40,1.14,scattered clouds,2022-03-31 02:17:05
416,Kupang,ID,-10.1667,123.5833,83.52,69,29,3.27,scattered clouds,2022-03-31 02:17:06
417,Itupiranga,BR,-5.1347,-49.3267,73.08,98,100,3.13,overcast clouds,2022-03-31 02:17:06
418,Yola,NG,9.2,12.4833,77.54,10,100,2.28,overcast clouds,2022-03-31 02:17:06
419,El Prat De Llobregat,ES,41.3278,2.0947,56.19,94,40,4.61,scattered clouds,2022-03-31 02:17:07
420,Stoughton,US,42.1251,-71.1023,44.65,45,100,5.75,overcast clouds,2022-03-31 02:17:08
421,Le Port,RE,-20.9373,55.2919,77.0,73,34,4.79,scattered clouds,2022-03-31 02:17:08
422,Chapais,CA,49.7834,-74.8492,28.18,91,100,8.63,light snow,2022-03-31 02:17:09
423,Banda Aceh,ID,5.5577,95.3222,81.52,76,53,6.71,broken clouds,2022-03-31 02:17:09
424,Batticaloa,LK,7.7102,81.6924,78.55,80,9,3.33,clear sky,2022-03-31 02:17:09
425,Miyako,JP,39.6367,141.9525,40.71,88,100,9.42,overcast clouds,2022-03-31 02:14:19
426,Kuybyshevo,RU,47.8123,38.9073,42.53,95,47,7.14,scattered clouds,2022-03-31 02:17:10
427,Sandwick,GB,60.0,-1.25,35.42,93,100,13.8,overcast clouds,2022-03-31 02:17:11
428,Huarmey,PE,-10.0681,-78.1522,70.92,83,100,9.71,overcast clouds,2022-03-31 02:17:11
429,Radhan,PK,27.1833,67.95,74.86,6,0,7.9,clear sky,2022-03-31 02:17:12
430,Bay-Khaak,RU,51.1667,94.5,28.08,89,95,3.89,light snow,2022-03-31 02:17:12
431,Kendari,ID,-3.945,122.4989,81.84,73,100,2.46,overcast clouds,2022-03-31 02:17:13
432,Puerto Escondido,MX,15.85,-97.0667,79.63,83,40,11.5,scattered clouds,2022-03-31 02:17:13
433,Nevsehir,TR,38.9167,34.6667,36.61,75,0,12.66,clear sky,2022-03-31 02:17:13
434,Vryburg,ZA,-26.9566,24.7284,62.2,54,10,7.83,clear sky,2022-03-31 02:17:14
435,Roebourne,AU,-20.7833,117.1333,88.34,57,93,9.17,overcast clouds,2022-03-31 02:17:14
436,Napanee,CA,44.2501,-76.9494,37.24,81,100,17.11,overcast clouds,2022-03-31 02:17:15
437,Gizo,SB,-8.103,156.8419,84.81,73,57,7.92,light rain,2022-03-31 02:17:15
438,Tilichiki,RU,60.4667,166.1,13.62,73,100,8.16,overcast clouds,2022-03-31 02:17:16
439,Dhaulpur,IN,26.7,77.9,82.38,12,0,5.86,clear sky,2022-03-31 02:17:16
440,Egvekinot,RU,66.3167,-179.1667,-2.15,79,91,11.74,overcast clouds,2022-03-31 02:17:17
441,Scottsbluff,US,41.8666,-103.6672,36.72,80,100,1.01,overcast clouds,2022-03-31 02:17:17
442,Birjand,IR,32.8663,59.2211,34.27,25,0,6.91,clear sky,2022-03-31 02:17:18
443,Comodoro Rivadavia,AR,-45.8667,-67.5,49.86,40,0,4.61,clear sky,2022-03-31 02:17:18
444,Vila,PT,42.0304,-8.1588,41.88,91,100,2.55,overcast clouds,2022-03-31 02:17:18
445,Bend,US,44.0582,-121.3153,44.82,64,75,12.66,broken clouds,2022-03-31 02:15:44
446,Makakilo City,US,21.3469,-158.0858,82.72,55,40,17.27,scattered clouds,2022-03-31 02:14:42
447,Bonfim,BR,3.0833,-59.95,81.05,55,57,7.18,broken clouds,2022-03-31 02:17:19
448,Katsuura,JP,35.1333,140.3,64.45,77,11,20.54,few clouds,2022-03-31 02:17:20
449,Kihei,US,20.785,-156.4656,80.62,73,40,16.11,light rain,2022-03-31 02:17:20
450,Garowe,SO,8.4054,48.4845,70.09,86,11,6.17,few clouds,2022-03-31 02:17:21
451,Tabatinga,BR,-4.2525,-69.9381,77.09,94,0,2.3,clear sky,2022-03-31 02:17:21
452,Kutum,SD,14.2,24.6667,64.65,8,100,7.34,overcast clouds,2022-03-31 02:17:22
453,Saint-Georges,GD,12.0564,-61.7485,78.48,73,20,5.75,few clouds,2022-03-31 02:17:22
454,Manitouwadge,CA,49.1215,-85.8403,21.81,99,97,1.52,overcast clouds,2022-03-31 02:17:23
455,Clonakilty,IE,51.6231,-8.8706,35.1,82,49,15.86,scattered clouds,2022-03-31 02:17:23
456,Lompoc,US,34.6391,-120.4579,55.94,83,75,20.71,haze,2022-03-31 02:17:24
457,Igarka,RU,67.4667,86.5833,26.78,95,100,22.55,light snow,2022-03-31 02:17:24
458,La Ronge,CA,55.1001,-105.2842,43.05,36,75,10.36,broken clouds,2022-03-31 02:17:24
459,Dunedin,NZ,-45.8742,170.5036,64.58,69,100,4.76,overcast clouds,2022-03-31 02:17:25
460,Skjervoy,NO,70.0311,20.9714,24.8,67,100,16.2,light snow,2022-03-31 02:17:25
461,Cape Canaveral,US,28.4058,-80.6048,77.02,75,0,17.27,clear sky,2022-03-31 02:17:26
462,Oktyabrskoye,RU,43.0645,44.7417,32.14,80,14,2.24,few clouds,2022-03-31 02:17:26
463,Vanersborg,SE,58.3807,12.3234,24.64,68,4,3.44,clear sky,2022-03-31 02:17:27
464,Yaransk,RU,57.3033,47.8861,6.8,97,97,4.56,overcast clouds,2022-03-31 02:17:27
465,Scunthorpe,GB,53.579,-0.6544,35.38,94,53,8.99,broken clouds,2022-03-31 02:17:27
466,Shwebo,MM,22.5667,95.7,87.62,36,39,8.05,scattered clouds,2022-03-31 02:17:28
467,Mitsamiouli,KM,-11.3847,43.2844,81.23,74,91,8.12,overcast clouds,2022-03-31 02:17:28
468,Udachnyy,RU,66.4167,112.4,23.45,62,100,6.69,overcast clouds,2022-03-31 02:17:29
469,Alice Springs,AU,-23.7,133.8833,76.55,38,19,13.8,few clouds,2022-03-31 02:17:29
470,Kamenka,RU,51.3223,42.7678,35.8,99,100,2.33,overcast clouds,2022-03-31 02:17:30
471,Bandar-E Anzali,IR,37.4727,49.4622,53.71,74,100,2.04,overcast clouds,2022-03-31 02:17:30
472,Ardakan,IR,32.31,54.0175,54.05,16,0,1.63,clear sky,2022-03-31 02:17:30
473,Praia,CV,14.9215,-23.5087,68.54,73,20,16.11,few clouds,2022-03-31 02:17:31
474,Weston,US,26.1004,-80.3998,78.03,75,20,17.27,few clouds,2022-03-31 02:17:31
475,Luwuk,ID,-0.9516,122.7875,86.68,62,75,2.3,broken clouds,2022-03-31 02:17:32
476,Lorengau,PG,-2.0226,147.2712,84.97,76,100,14.94,overcast clouds,2022-03-31 02:17:32
477,Esso,RU,55.9333,158.7,24.42,79,100,4.12,overcast clouds,2022-03-31 02:17:33
478,Kavaratti,IN,10.5669,72.642,82.85,75,47,2.01,scattered clouds,2022-03-31 02:17:33
479,Nadym,RU,65.5333,72.5167,8.24,84,11,20.92,few clouds,2022-03-31 02:17:33
480,Guane,CU,22.2025,-84.0875,77.05,80,26,15.68,scattered clouds,2022-03-31 02:17:34
481,Takoradi,GH,4.8845,-1.7554,80.38,88,70,7.58,broken clouds,2022-03-31 02:17:34
482,Inhambane,MZ,-23.865,35.3833,73.56,85,3,1.74,clear sky,2022-03-31 02:17:35
483,Angoram,PG,-4.0625,144.0661,88.25,64,78,3.47,broken clouds,2022-03-31 02:17:35
484,Kingman,US,35.1894,-114.053,71.08,39,0,3.44,clear sky,2022-03-31 02:17:36
485,Colares,PT,38.7992,-9.4469,57.33,76,28,7.0,scattered clouds,2022-03-31 02:17:37
486,Komsomolskiy,UZ,40.4272,71.7189,43.52,75,0,6.91,clear sky,2022-03-31 02:17:37
487,Ayr,GB,55.4627,-4.6339,33.31,69,0,4.61,clear sky,2022-03-31 02:17:37
488,Chotila,IN,22.4167,71.1833,74.43,45,0,9.17,clear sky,2022-03-31 02:17:38
489,Awbari,LY,26.5921,12.7805,77.29,12,100,17.11,overcast clouds,2022-03-31 02:17:38
490,Hanzhong,CN,33.0728,107.0303,53.35,80,100,2.06,overcast clouds,2022-03-31 02:15:35
491,Wajid,SO,3.8093,43.2471,76.66,64,5,18.43,clear sky,2022-03-31 02:17:39
492,Daytona Beach,US,29.2108,-81.0228,74.08,75,0,18.41,clear sky,2022-03-31 02:12:48
493,Mosquera,CO,4.7059,-74.2302,57.29,88,75,5.75,light intensity drizzle,2022-03-31 02:17:40
494,Dayong,CN,25.0209,118.2898,74.07,81,94,4.34,overcast clouds,2022-03-31 02:17:40
495,Rantepao,ID,-2.9701,119.8978,82.22,57,59,2.44,broken clouds,2022-03-31 02:17:41
496,Horasan,TR,40.0458,42.1728,13.98,90,56,1.25,broken clouds,2022-03-31 02:17:41
497,Coquimbo,CL,-29.9533,-71.3436,56.93,88,0,4.61,clear sky,2022-03-31 02:17:41
498,Marica,BR,-22.9194,-42.8186,84.11,87,2,4.88,clear sky,2022-03-31 02:17:42
499,Patiya,BD,22.2931,91.9762,82.45,67,30,4.76,scattered clouds,2022-03-31 02:17:43
500,Palia Kalan,IN,28.45,80.5833,76.26,27,0,8.81,clear sky,2022-03-31 02:17:43
501,Matara,LK,5.9485,80.5353,79.05,86,72,1.34,broken clouds,2022-03-31 02:17:43
502,Dukat,RU,62.55,155.55,6.4,83,100,8.25,overcast clouds,2022-03-31 02:17:44
503,Eitorf,DE,50.7667,7.45,45.0,91,100,4.63,overcast clouds,2022-03-31 02:17:44
504,Hamilton,US,39.1834,-84.5333,77.09,36,0,33.38,clear sky,2022-03-31 02:17:05
505,Serenje,ZM,-13.2325,30.2352,59.2,98,56,7.0,broken clouds,2022-03-31 02:17:45
506,Saint-Joseph,RE,-21.3667,55.6167,75.58,74,60,16.93,broken clouds,2022-03-31 02:17:45
507,Yulara,AU,-25.2406,130.9889,80.44,36,98,11.5,overcast clouds,2022-03-31 02:17:46
508,Lingao,CN,19.9103,109.6859,77.68,82,59,11.52,broken clouds,2022-03-31 02:17:47
509,Colesberg,ZA,-30.72,25.0972,62.56,70,99,3.29,overcast clouds,2022-03-31 02:17:47
510,Novyye Gorki,RU,56.7253,41.0601,16.79,95,98,3.36,overcast clouds,2022-03-31 02:17:48
511,Mikhaylovka,RU,50.06,43.2379,47.79,86,100,8.66,overcast clouds,2022-03-31 02:17:48
512,Dolores,AR,-36.3132,-57.6792,45.86,80,10,8.12,clear sky,2022-03-31 02:17:49
513,Ardesen,TR,41.1911,40.9875,50.99,65,3,9.46,clear sky,2022-03-31 02:17:49
514,Caibarien,CU,22.5206,-79.4669,74.52,70,1,20.56,clear sky,2022-03-31 02:17:49
515,Port Pirie,AU,-33.1833,138.0167,66.29,30,0,16.53,clear sky,2022-03-31 02:17:50
516,Luanda,AO,-8.8368,13.2343,76.91,87,100,7.7,overcast clouds,2022-03-31 02:17:50
517,Luquillo,PR,18.3725,-65.7166,76.95,83,75,11.5,broken clouds,2022-03-31 02:17:51
518,Beterou,BJ,9.1992,2.2586,82.08,66,41,5.32,light rain,2022-03-31 02:17:51
519,Nicoya,CR,10.1483,-85.452,81.36,67,58,1.68,broken clouds,2022-03-31 02:17:52
520,Preobrazheniye,RU,42.9019,133.9064,41.25,39,99,5.77,overcast clouds,2022-03-31 02:17:52
521,Olean,US,42.0776,-78.4297,48.88,65,0,14.97,clear sky,2022-03-31 02:17:53
522,Ivanava,BY,52.1451,25.5365,36.82,96,100,10.76,overcast clouds,2022-03-31 02:17:53
523,Bar Harbor,US,44.3876,-68.2039,40.01,67,0,5.75,clear sky,2022-03-31 02:17:54
524,Sal Rei,CV,16.1833,-22.9167,68.68,80,4,20.33,clear sky,2022-03-31 02:17:54
525,Khorixas,NA,-20.3667,14.9667,73.63,61,35,3.58,scattered clouds,2022-03-31 02:17:54
526,Husavik,IS,66.0449,-17.3389,29.37,78,100,5.84,overcast clouds,2022-03-31 02:17:55
527,Litovko,RU,49.2361,135.1742,28.67,82,86,2.33,overcast clouds,2022-03-31 02:17:55
528,Kathmandu,NP,27.7167,85.3167,66.42,88,75,3.44,mist,2022-03-31 02:15:00
529,Caravelas,BR,-17.7125,-39.2481,75.15,82,0,4.43,clear sky,2022-03-31 02:17:56
530,Likasi,CD,-10.9814,26.7333,60.49,99,85,2.98,overcast clouds,2022-03-31 02:17:56
531,Xuddur,SO,4.1213,43.8894,74.26,72,0,15.82,clear sky,2022-03-31 02:17:57
532,Blackwater,AU,-23.5833,148.8833,88.86,28,0,15.21,clear sky,2022-03-31 02:17:57
533,Bosobolo,CD,4.1833,19.9,75.52,58,51,3.78,broken clouds,2022-03-31 02:17:58
534,Boshan,CN,36.4833,117.8333,45.77,39,100,8.25,overcast clouds,2022-03-31 02:17:58
535,Artesia,US,33.8658,-118.0831,65.88,76,0,8.05,clear sky,2022-03-31 02:17:59
536,Pontypool,GB,51.7011,-3.0444,36.16,85,97,14.65,overcast clouds,2022-03-31 02:17:59
537,Buraydah,SA,26.326,43.975,64.85,16,0,11.36,clear sky,2022-03-31 02:18:00
538,Najran,SA,17.4924,44.1277,56.05,24,0,0.6,clear sky,2022-03-31 02:18:00
539,Edd,ER,13.9297,41.6925,83.5,30,0,16.84,clear sky,2022-03-31 02:18:01
540,Acapulco,MX,16.8634,-99.8901,76.82,65,0,11.5,clear sky,2022-03-31 02:14:52
541,Belawan,ID,3.7755,98.6832,79.09,71,29,4.18,scattered clouds,2022-03-31 02:18:01
542,Raymond,US,43.9015,-70.4703,42.04,46,100,3.98,overcast clouds,2022-03-31 02:18:02
543,Maragogi,BR,-9.0122,-35.2225,77.94,83,100,2.28,overcast clouds,2022-03-31 02:16:09
544,Bonavista,CA,48.6499,-53.1147,32.36,86,100,23.06,overcast clouds,2022-03-31 02:13:13
545,Olga,RU,43.7444,135.2892,41.92,29,90,9.69,overcast clouds,2022-03-31 02:18:03
546,Paranaiba,BR,-19.6772,-51.1908,74.43,72,83,4.5,broken clouds,2022-03-31 02:18:03
547,Prince Rupert,CA,54.3161,-130.3201,42.49,87,100,4.61,moderate rain,2022-03-31 02:18:03
548,Viedma,AR,-40.8135,-62.9967,50.31,59,0,7.61,clear sky,2022-03-31 02:18:04
549,Asau,RO,46.4333,26.4,47.32,62,100,3.53,overcast clouds,2022-03-31 02:18:04
550,Bereda,ES,43.2686,-7.5406,43.14,100,100,1.95,light rain,2022-03-31 02:18:05
551,Manggar,ID,-2.8833,108.2667,85.05,67,17,2.42,few clouds,2022-03-31 02:18:05
552,Hofn,IS,64.2539,-15.2082,33.8,65,100,6.49,overcast clouds,2022-03-31 02:18:06
553,Prieska,ZA,-29.6641,22.7474,68.95,61,16,3.44,few clouds,2022-03-31 02:18:06
554,Itoman,JP,26.1247,127.6694,77.02,92,75,10.36,broken clouds,2022-03-31 02:18:07
555,Tallahassee,US,30.4383,-84.2807,71.8,81,10,3.0,clear sky,2022-03-31 02:15:31
556,Port Macquarie,AU,-31.4333,152.9167,69.69,94,75,10.36,broken clouds,2022-03-31 02:14:23
557,Bishop Auckland,GB,54.6555,-1.6771,37.33,91,90,9.82,overcast clouds,2022-03-31 02:18:08
558,Along,IN,28.1667,94.7667,69.48,82,98,1.16,overcast clouds,2022-03-31 02:18:08
559,Parainen,FI,60.3067,22.301,25.14,92,18,3.69,few clouds,2022-03-31 02:18:08
560,Saint Anthony,US,45.0205,-93.218,35.06,85,100,16.11,overcast clouds,2022-03-31 02:18:09
561,Hede,CN,33.7681,120.2517,51.75,55,100,13.85,overcast clouds,2022-03-31 02:18:09
562,Bela Vista,BR,-22.1089,-56.5211,64.38,97,100,9.57,overcast clouds,2022-03-31 02:18:10
563,Pundaguitan,PH,6.3711,126.1689,81.99,73,14,5.39,few clouds,2022-03-31 02:18:10
564,Cheyenne,US,41.14,-104.8203,35.74,37,0,13.0,clear sky,2022-03-31 02:14:00
565,Nambucca Heads,AU,-30.65,153.0,78.17,78,70,19.15,broken clouds,2022-03-31 02:18:11
566,Russellville,US,35.2784,-93.1338,47.98,76,100,13.8,overcast clouds,2022-03-31 02:18:11
567,Road Town,VG,18.4167,-64.6167,77.04,73,40,10.36,scattered clouds,2022-03-31 02:18:12
568,Sapozhok,RU,53.9419,40.6806,27.61,92,100,6.15,light snow,2022-03-31 02:18:12
569,Lonevag,NO,60.5262,5.4937,32.02,61,7,1.99,heavy snow,2022-03-31 02:18:13
570,Frome,GB,51.2283,-2.3221,38.03,87,100,3.0,overcast clouds,2022-03-31 02:18:13
571,Price,US,39.5994,-110.8107,51.12,34,0,9.22,clear sky,2022-03-31 02:18:14
572,Promyshlennovskiy,RU,55.4833,86.2,34.57,97,100,16.15,light snow,2022-03-31 02:18:14
573,Kununurra,AU,-15.7667,128.7333,94.98,36,34,10.36,scattered clouds,2022-03-31 02:18:15
574,Grand-Lahou,CI,5.1367,-5.0242,79.36,91,82,6.76,broken clouds,2022-03-31 02:18:15
575,Changji,CN,44.0167,87.3167,39.99,65,0,2.24,clear sky,2022-03-31 02:16:46
576,Tokur,RU,53.1333,132.9,20.55,82,100,3.11,light snow,2022-03-31 02:18:17
577,Belem De Sao Francisco,BR,-8.7539,-38.9658,77.58,61,82,12.84,broken clouds,2022-03-31 02:18:17
578,Kenda,IN,23.2,86.5333,79.5,67,34,2.93,scattered clouds,2022-03-31 02:18:18
579,Yatou,CN,37.15,122.3833,46.47,41,100,15.68,overcast clouds,2022-03-31 02:18:18
580,Beringovskiy,RU,63.05,179.3167,-0.87,85,92,15.86,overcast clouds,2022-03-31 02:18:19
581,Altay,CN,47.8667,88.1167,25.18,61,0,5.57,clear sky,2022-03-31 02:18:19
582,Elesbao Veloso,BR,-6.2019,-42.1403,75.6,77,100,0.87,overcast clouds,2022-03-31 02:18:19
583,Castle Bruce,DM,15.4333,-61.2667,76.26,77,100,16.4,overcast clouds,2022-03-31 02:18:20
584,Seoul,KR,37.5683,126.9778,56.59,62,100,6.91,overcast clouds,2022-03-31 02:18:20
585,Lagos,NG,6.5833,3.75,84.52,85,99,4.05,overcast clouds,2022-03-31 02:16:41
586,Kinsale,IE,51.7075,-8.5306,35.24,80,20,11.5,few clouds,2022-03-31 02:18:21
587,Tezu,IN,27.9167,96.1667,77.9,52,97,0.83,overcast clouds,2022-03-31 02:18:21
588,Aksha,RU,50.2814,113.2867,30.31,30,0,7.34,clear sky,2022-03-31 02:18:22
589,Portree,GB,57.4129,-6.1942,33.53,85,8,9.53,clear sky,2022-03-31 02:18:22
590,Flinders,AU,-34.5833,150.8552,66.38,88,96,7.0,light rain,2022-03-31 02:18:23
591,Madona,LV,56.8533,26.217,22.8,60,0,1.54,clear sky,2022-03-31 02:18:23
592,Lao Cai,VN,22.4833,103.95,75.4,87,96,2.1,overcast clouds,2022-03-31 02:18:24
593,Vrbove,SK,48.6197,17.7226,50.45,77,100,4.61,overcast clouds,2022-03-31 02:18:24
594,Mattru,SL,7.6244,-11.8332,77.32,92,21,2.44,few clouds,2022-03-31 02:18:24
595,Manyana,BW,-23.4,21.7167,66.79,69,3,6.62,clear sky,2022-03-31 02:18:25
596,Martapura,ID,-3.4167,114.85,87.89,70,20,4.61,few clouds,2022-03-31 02:18:25
597,Zhangye,CN,38.9342,100.4517,46.58,24,100,6.89,overcast clouds,2022-03-31 02:18:26
598,Tombouctou,ML,20.0,-3.0,79.5,19,100,10.67,overcast clouds,2022-03-31 02:18:26
599,Santa Maria,BR,-29.6842,-53.8069,54.19,54,100,4.5,overcast clouds,2022-03-31 02:18:27
600,Bisira,PA,8.5196,-81.7115,59.27,93,81,5.26,broken clouds,2022-03-31 02:18:27
601,Buluang,PH,13.3068,123.3425,88.25,57,9,1.39,clear sky,2022-03-31 02:18:28
602,Kashi,CN,39.4547,75.9797,51.01,40,40,0.0,scattered clouds,2022-03-31 02:18:28
603,Glowno,PL,51.9646,19.7157,32.92,92,100,11.7,light snow,2022-03-31 02:18:29
604,Rabo De Peixe,PT,37.8,-25.5833,58.51,88,75,3.44,broken clouds,2022-03-31 02:18:29
605,Meligalas,GR,37.2167,21.9667,56.46,94,87,2.3,overcast clouds,2022-03-31 02:18:30
606,Shafranovo,RU,53.9667,54.7667,27.07,98,100,6.96,snow,2022-03-31 02:18:30
607,Bayan,CN,46.0833,127.4,38.88,29,87,11.86,overcast clouds,2022-03-31 02:18:31
608,Korla,CN,41.7597,86.1469,46.62,45,7,4.94,clear sky,2022-03-31 02:18:31
609,Kasongo-Lunda,CD,-6.4667,16.8167,67.33,97,89,1.86,overcast clouds,2022-03-31 02:18:32
610,At-Bashi,KG,41.1702,75.8106,26.6,55,2,5.44,clear sky,2022-03-31 02:18:32
611,Manta,EC,-0.95,-80.7333,75.76,89,69,4.76,broken clouds,2022-03-31 02:18:32
612,Richards Bay,ZA,-28.783,32.0377,69.53,83,0,7.02,clear sky,2022-03-31 02:18:33
613,Camara De Lobos,PT,32.6333,-16.9667,60.71,86,40,5.99,scattered clouds,2022-03-31 02:18:33
614,Yantal,RU,56.8471,105.2542,25.74,94,100,6.64,overcast clouds,2022-03-31 02:18:34
615,Port Hardy,CA,50.6996,-127.4199,44.78,87,75,3.44,broken clouds,2022-03-31 02:18:34
616,Manokwari,ID,-0.8667,134.0833,81.52,74,100,1.25,overcast clouds,2022-03-31 02:18:35
617,Dodge City,US,37.7528,-100.0171,34.05,60,0,8.05,clear sky,2022-03-31 02:18:35
618,Ust-Tsilma,RU,65.441,52.1498,-4.56,99,94,2.98,overcast clouds,2022-03-31 02:18:36
619,Hilsa,IN,25.3167,85.2833,75.13,58,2,8.93,clear sky,2022-03-31 02:18:36
620,Nosy Varika,MG,-20.5833,48.5333,74.03,85,75,6.58,moderate rain,2022-03-31 02:18:37
621,Grafton,US,42.207,-71.6856,42.51,41,100,10.36,overcast clouds,2022-03-31 02:18:37
622,Itacoatiara,BR,-3.1431,-58.4442,71.35,99,100,2.46,overcast clouds,2022-03-31 02:18:37
623,Khorinsk,RU,52.1657,109.7726,26.67,47,16,3.58,few clouds,2022-03-31 02:18:38
624,Ankpa,NG,7.3706,7.6253,76.41,73,50,7.72,scattered clouds,2022-03-31 02:18:38
625,Rincon De La Victoria,ES,36.7172,-4.2758,58.84,63,55,12.91,broken clouds,2022-03-31 02:18:39
626,Qaqortoq,GL,60.7167,-46.0333,32.88,79,100,2.01,overcast clouds,2022-03-31 02:18:39
627,Fare,PF,-16.7,-151.0167,82.13,71,8,13.73,light rain,2022-03-31 02:18:40
628,Puka,EE,58.0559,26.2436,22.24,76,7,4.76,clear sky,2022-03-31 02:18:40
629,Aquiraz,BR,-3.9014,-38.3911,80.19,85,100,7.92,overcast clouds,2022-03-31 02:18:41
630,Sabya,SA,17.1495,42.6254,80.22,60,0,5.73,clear sky,2022-03-31 02:18:41
631,Mailsi,PK,29.8003,72.1758,73.45,16,0,6.38,clear sky,2022-03-31 02:18:41
632,Kholm-Zhirkovskiy,RU,55.5189,33.4731,25.02,96,100,6.58,light snow,2022-03-31 02:18:42
633,Victor Harbor,AU,-35.5667,138.6167,63.21,54,20,20.13,few clouds,2022-03-31 02:18:42
634,Shirokiy,RU,49.758,129.523,26.04,78,8,11.88,clear sky,2022-03-31 02:18:43
635,Anito,PH,12.4497,125.2886,81.36,87,64,7.49,broken clouds,2022-03-31 02:18:43
636,La Rioja,ES,42.25,-2.5,38.98,92,91,7.02,overcast clouds,2022-03-31 02:18:44
637,Liepaja,LV,56.5419,21.0367,24.78,74,100,0.0,overcast clouds,2022-03-31 02:18:44
638,Shache,CN,38.4167,77.2406,56.71,37,100,12.3,overcast clouds,2022-03-31 02:16:10
639,Cap Malheureux,MU,-19.9842,57.6142,79.47,73,46,10.0,scattered clouds,2022-03-31 02:18:45
640,Dwarka,IN,22.2394,68.9678,76.75,74,0,7.83,clear sky,2022-03-31 02:18:45
641,Vega De Alatorre,MX,20.0333,-96.6333,76.64,76,51,8.9,broken clouds,2022-03-31 02:18:46
642,Penzance,GB,50.1186,-5.5371,43.48,87,95,19.57,overcast clouds,2022-03-31 02:18:46
643,Las Vegas,US,36.175,-115.1372,76.17,18,0,9.22,clear sky,2022-03-31 02:16:10
644,Vaitape,PF,-16.5167,-151.75,82.45,68,13,14.32,few clouds,2022-03-31 02:18:47
645,Kon Tum,VN,14.35,108.0,74.08,77,100,5.82,overcast clouds,2022-03-31 02:18:47
646,Kirando,TZ,-7.4167,30.6,71.11,86,100,3.13,moderate rain,2022-03-31 02:18:48
647,Boma,GH,7.0805,-2.1697,75.09,92,98,3.31,overcast clouds,2022-03-31 02:18:48
648,Nouadhibou,MR,20.931,-17.0347,64.38,77,0,26.46,clear sky,2022-03-31 02:18:49
649,Kopavogur,IS,64.1123,-21.913,37.62,64,40,6.91,scattered clouds,2022-03-31 02:18:49
650,Danane,CI,7.2596,-8.155,71.47,97,71,1.63,broken clouds,2022-03-31 02:16:09
651,La Paz,BO,-16.5,-68.15,48.18,81,20,9.22,few clouds,2022-03-31 02:18:50
652,Lata,PT,40.1629,-8.3327,48.94,90,97,3.24,overcast clouds,2022-03-31 02:18:51
653,Canete,CL,-37.8,-73.4,49.28,74,0,7.2,clear sky,2022-03-31 02:16:37
654,Hambantota,LK,6.1241,81.1185,80.62,80,21,3.09,few clouds,2022-03-31 02:14:40
655,Oistins,BB,13.0667,-59.5333,77.09,69,20,17.27,few clouds,2022-03-31 02:18:35
656,Tokonou,GN,9.65,-9.7833,78.51,68,23,9.62,few clouds,2022-03-31 02:18:52
657,Tutrakan,BG,44.05,26.6167,52.84,65,100,6.35,overcast clouds,2022-03-31 02:18:52
658,Marsa Matruh,EG,31.3525,27.2453,60.4,68,100,4.09,overcast clouds,2022-03-31 02:18:52
659,Pochinki,RU,54.6988,44.8668,22.48,94,100,2.46,overcast clouds,2022-03-31 02:18:53
660,Deer Lake,CA,49.1667,-57.4316,35.46,87,75,9.22,broken clouds,2022-03-31 02:18:53
661,Antalaha,MG,-14.9003,50.2788,73.69,92,49,5.88,light rain,2022-03-31 02:17:16
662,Kidal,ML,18.4411,1.4078,78.06,3,42,6.64,scattered clouds,2022-03-31 02:18:54
663,Mareeba,AU,-17.0,145.4333,92.44,34,78,1.72,broken clouds,2022-03-31 02:18:54
664,Rio Gallegos,AR,-51.6226,-69.2181,48.25,61,75,8.05,broken clouds,2022-03-31 02:18:55
665,Cururupu,BR,-1.8283,-44.8683,72.97,98,100,0.63,overcast clouds,2022-03-31 02:15:07
666,Totskoye,RU,52.5248,52.7623,34.18,99,100,4.79,snow,2022-03-31 02:18:55
667,Copiapo,CL,-27.3667,-70.3333,64.15,68,0,1.01,clear sky,2022-03-31 02:18:56
668,Wuchang,CN,44.9143,127.15,39.07,30,1,12.93,clear sky,2022-03-31 02:18:56
669,Sasaram,IN,24.951,84.0149,82.81,29,0,5.14,clear sky,2022-03-31 02:18:57
670,Pangai,TO,-19.8,-174.35,82.51,74,75,5.75,broken clouds,2022-03-31 02:18:57
671,Pringsewu,ID,-5.3582,104.9744,82.99,74,73,1.54,broken clouds,2022-03-31 02:18:58
672,Labuhan,ID,-6.8844,112.2051,83.48,75,88,4.5,overcast clouds,2022-03-31 02:18:58
673,Griffith,US,41.5284,-87.4237,58.05,95,100,5.75,moderate rain,2022-03-31 02:18:58
674,Quchan,IR,37.106,58.5095,45.72,41,0,2.1,clear sky,2022-03-31 02:18:59
675,Hun,LY,29.1268,15.9477,76.46,8,100,18.54,overcast clouds,2022-03-31 02:18:59
676,Gao,ML,16.6362,1.637,76.68,3,18,6.73,few clouds,2022-03-31 02:19:00
677,Lavrentiya,RU,65.5833,-171.0,17.74,94,100,10.29,snow,2022-03-31 02:19:00
678,Horki,BY,54.2861,30.9842,29.07,97,100,5.48,light snow,2022-03-31 02:19:00
679,Pokotylivka,UA,49.9153,36.1772,45.48,95,100,1.77,overcast clouds,2022-03-31 02:19:01
680,Portobelo,PA,9.55,-79.65,79.72,89,73,11.79,broken clouds,2022-03-31 02:19:01
681,Shaowu,CN,27.3409,117.4831,67.41,97,100,1.59,light rain,2022-03-31 02:16:10
682,Totton,GB,50.9188,-1.4904,39.15,81,100,3.0,overcast clouds,2022-03-31 02:19:02
683,Mandalgovi,MN,45.7625,106.2708,28.08,26,100,15.43,overcast clouds,2022-03-31 02:19:03
684,Peterhead,GB,57.5058,-1.7981,31.66,62,67,13.09,broken clouds,2022-03-31 02:19:03
685,Umm Kaddadah,SD,13.6017,26.6876,70.34,8,97,16.22,overcast clouds,2022-03-31 02:19:03
686,Port Lincoln,AU,-34.7333,135.8667,64.78,57,81,21.47,broken clouds,2022-03-31 02:19:04
687,Bolivar,US,37.6145,-93.4105,38.16,95,100,14.18,overcast clouds,2022-03-31 02:19:00
688,Channel-Port Aux Basques,CA,47.5702,-59.1367,34.02,97,100,24.61,light snow,2022-03-31 02:19:04
689,Fos-Sur-Mer,FR,43.4377,4.9446,52.36,93,0,12.66,clear sky,2022-03-31 02:19:05
690,Amuntai,ID,-2.4177,115.2494,88.75,60,14,1.01,few clouds,2022-03-31 02:19:05
691,Raga,SS,8.4596,25.678,74.48,16,45,2.04,scattered clouds,2022-03-31 02:19:06
692,Bukama,CD,-9.2,25.85,68.58,99,97,2.8,moderate rain,2022-03-31 02:19:06
693,Mbandaka,CD,0.0487,18.2603,71.56,85,91,3.87,overcast clouds,2022-03-31 02:19:07
694,Atambua,ID,-9.1061,124.8925,80.82,69,71,0.29,broken clouds,2022-03-31 02:19:07
